,Unnamed: 0,City,Country,Temperature,Humidity,Cloudiness,Windspeed,Latitude,Longitude,Hotel Name
0,139,carnarvon,AU,71.85,55,0,8.05,-24.8667,113.6333,Hospitality Carnarvon
1,209,lubango,AO,71.67,8,0,9.33,-14.9172,13.4925,Hotel Serra da Chela
2,298,saint george,US,75.79,17,0,4.61,37.1041,-113.5841,Best Western Plus Abbey Inn
3,352,karratha,AU,75.6,55,0,7.72,-20.7377,116.8463,ibis Styles Karratha
4,357,cabra,ES,72.66,44,0,1.01,37.4725,-4.4421,MS Fuente Las Piedras
5,440,yurty,RU,74.86,34,0,2.95,56.0498,97.6348,Gostinitsa Khutorok
